City_ID,City,Lat,Lng,Max Temp,Humidity,Cloudiness,Wind Speed,Country,Date,Max Temp (C)
0,tiksi,71.6872,128.8694,-23.43999999999997,98,100,4.99,RU,1701586513,-296.5899999999999
1,margaret river,-33.95,115.0667,20.340000000000032,64,5,5.0,AU,1701586514,-252.80999999999995
2,tynda,55.1667,124.7167,-16.21999999999997,95,100,1.07,RU,1701586515,-289.36999999999995
3,colonia,50.9333,6.95,0.8700000000000045,80,75,3.6,DE,1701586296,-272.28
4,ribeira grande,38.5167,-28.7,15.020000000000039,56,100,8.58,PT,1701586517,-258.12999999999994
5,tazovsky,67.4667,78.7,-28.059999999999974,92,6,5.42,RU,1701586518,-301.2099999999999
6,susuman,62.7833,148.1667,-39.95999999999998,100,96,0.35,RU,1701586519,-313.10999999999996
7,pyhaselka,62.4333,29.9667,-12.729999999999961,98,94,0.85,FI,1701586520,-285.87999999999994
8,bad bentheim,52.3167,7.1667,1.4399999999999977,64,100,0.45,DE,1701586522,-271.71
9,waitangi,-43.9535,-176.5597,14.900000000000034,92,100,4.92,NZ,1701586523,-258.24999999999994
10,port-aux-francais,-49.35,70.2167,5.470000000000027,90,100,16.91,TF,1701586524,-267.67999999999995
11,grytviken,-54.2811,-36.5092,1.8100000000000023,77,24,6.3,GS,1701586525,-271.34
12,blackmans bay,-43.0167,147.3167,18.07000000000005,78,99,3.46,AU,1701586526,-255.07999999999993
13,enewetak,11.3474,162.3373,27.75,77,100,8.92,MH,1701586527,-245.39999999999998
14,yellowknife,62.456,-114.3525,-20.70999999999998,84,75,3.6,CA,1701586506,-293.85999999999996
15,kodiak,57.79,-152.4072,4.82000000000005,88,100,8.95,US,1701586529,-268.3299999999999
16,pemba,-12.974,40.5178,29.390000000000043,74,75,5.36,MZ,1701586530,-243.75999999999993
17,touros,-5.1989,-35.4608,25.120000000000005,84,96,3.82,BR,1701586531,-248.02999999999997
18,puerto ayora,-0.7393,-90.3518,24.189999999999998,94,100,3.13,EC,1701586533,-248.95999999999998
19,al hufuf,25.3646,49.5653,20.189999999999998,37,0,3.6,SA,1701586534,-252.95999999999998
20,okha,53.5739,142.9478,-15.039999999999964,91,8,5.29,RU,1701586296,-288.18999999999994
21,utrik,11.2278,169.8474,27.02000000000004,72,36,7.24,MH,1701586536,-246.12999999999994
22,flying fish cove,-10.4217,105.6791,28.82000000000005,65,40,4.63,CX,1701586537,-244.32999999999993
23,udachny,66.4167,112.4,-41.24999999999997,100,65,1.3,RU,1701586538,-314.4
24,adamstown,-25.066,-130.1015,22.439999999999998,87,15,6.4,PN,1701586539,-250.70999999999998
25,mount isa,-20.7333,139.5,35.870000000000005,34,40,7.2,AU,1701586541,-237.27999999999997
26,olavarria,-36.8927,-60.3225,8.29000000000002,66,61,2.08,AR,1701586542,-264.85999999999996
27,kristiansund,63.1115,7.732,-4.639999999999986,63,0,4.12,NO,1701586543,-277.78999999999996
28,bjelovar,45.8986,16.8489,-1.25,86,100,0.86,HR,1701586544,-274.4
29,kokoda,-8.8785,147.7407,28.640000000000043,80,72,1.78,PG,1701586545,-244.50999999999993
30,igra,57.5558,53.0547,-12.069999999999993,95,71,2.84,RU,1701586546,-285.21999999999997
31,kailua-kona,19.6406,-155.9956,24.77000000000004,91,17,0.45,US,1701586547,-248.37999999999994
32,ushuaia,-54.8,-68.3,4.810000000000002,70,40,9.77,AR,1701586249,-268.34
33,helston,50.1032,-5.2705,10.110000000000014,81,100,6.69,GB,1701586503,-263.03999999999996
34,puerto natales,-51.7236,-72.4875,1.7900000000000205,91,94,2.51,CL,1701586279,-271.35999999999996
35,bilibino,68.0546,166.4372,-25.95999999999998,99,99,0.7,RU,1701586552,-299.10999999999996
36,gumdag,39.2061,54.5906,16.52000000000004,39,0,4.5,TM,1701586553,-256.62999999999994
37,namibe,-15.1961,12.1522,22.680000000000007,87,100,1.71,AO,1701586554,-250.46999999999997
38,sittwe,20.15,92.9,28.07000000000005,63,100,3.1,MM,1701586555,-245.07999999999993
39,haimen,23.1935,116.6142,22.939999999999998,74,88,7.2,CN,1701586556,-250.20999999999998
40,papatowai,-46.5619,169.4708,10.25,60,18,7.43,NZ,1701586557,-262.9
41,morwell,-38.2333,146.4,19.670000000000016,51,49,3.25,AU,1701586558,-253.47999999999996
42,whitehorse,60.7161,-135.0538,-10.569999999999993,92,100,2.06,CA,1701586448,-283.71999999999997
43,iqaluit,63.7506,-68.5145,-5.149999999999977,68,75,4.63,CA,1701586560,-278.29999999999995
44,hamilton,39.1834,-84.5333,8.939999999999998,87,100,0.89,US,1701586561,-264.21
45,saipan,15.1355,145.701,28.170000000000016,71,33,9.53,MP,1701586562,-244.97999999999996
46,nuriootpa,-34.4833,139.0,28.140000000000043,22,56,5.64,AU,1701586564,-245.00999999999993
47,ust-nera,64.5667,143.2,-40.91999999999999,99,81,1.05,RU,1701586565,-314.06999999999994
48,chengde,40.9725,117.9361,3.6000000000000227,32,11,0.22,CN,1701586566,-269.54999999999995
49,edinburgh of the seven seas,-37.0676,-12.3116,13.890000000000043,77,49,2.1,SH,1701586567,-259.25999999999993
50,sept-iles,50.2001,-66.3821,-8.0,87,0,3.09,CA,1701586568,-281.15
51,albany,42.6001,-73.9662,5.960000000000036,93,100,0.45,US,1701586570,-267.18999999999994
52,qaqortoq,60.7167,-46.0333,-3.0600000000000023,73,100,4.1,GL,1701586571,-276.21
53,bayport,40.7384,-73.0507,10.170000000000016,97,100,3.09,US,1701586573,-262.97999999999996
54,port elizabeth,-33.918,25.5701,23.939999999999998,82,75,1.03,ZA,1701586574,-249.20999999999998
55,nyagan,62.1406,65.3936,-16.389999999999986,91,100,4.73,RU,1701586575,-289.53999999999996
56,nagqu,31.5,92.0,-1.1499999999999773,15,100,7.62,CN,1701586576,-274.29999999999995
57,tura,25.5198,90.2201,27.370000000000005,40,90,1.42,IN,1701586578,-245.77999999999997
58,nili,33.7218,66.1302,8.400000000000034,43,35,0.67,AF,1701586579,-264.74999999999994
59,port alfred,-33.5906,26.891,19.54000000000002,96,100,0.89,ZA,1701586580,-253.60999999999996
60,khanty-mansiysk,61.0042,69.0019,-14.939999999999998,72,40,4.0,RU,1701586581,-288.09
61,st. john's,47.5649,-52.7093,2.2100000000000364,92,75,3.13,CA,1701586322,-270.93999999999994
62,longyearbyen,78.2186,15.6401,-7.089999999999975,86,75,3.09,SJ,1701586328,-280.23999999999995
63,ilhabela,-23.7781,-45.3581,23.090000000000032,89,62,1.54,BR,1701586584,-250.05999999999995
64,college,64.8569,-147.8028,-23.279999999999973,83,9,1.02,US,1701586585,-296.42999999999995
65,mazamet,43.49,2.373,2.0300000000000296,76,100,1.88,FR,1701586503,-271.11999999999995
66,lebu,-37.6167,-73.65,9.230000000000018,74,0,8.72,CL,1701586587,-263.91999999999996
67,west island,-12.1568,96.8225,28.99000000000001,61,22,5.14,CC,1701586588,-244.15999999999997
68,san juan de miraflores,-12.1629,-76.9635,18.29000000000002,86,93,2.05,PE,1701586590,-254.85999999999996
69,albertina,-22.2008,-46.6158,19.360000000000014,67,49,1.04,BR,1701586591,-253.78999999999996
70,asosa,10.0667,34.5333,25.010000000000048,33,98,2.63,ET,1701586592,-248.13999999999993
71,holualoa,19.6228,-155.9522,22.700000000000045,90,21,0.45,US,1701586593,-250.44999999999993
72,bredasdorp,-34.5322,20.0403,20.600000000000023,47,28,5.91,ZA,1701586594,-252.54999999999995
73,kingston,17.997,-76.7936,26.53000000000003,94,20,3.6,JM,1701586595,-246.61999999999995
74,sinjai,-5.1241,120.253,31.470000000000027,61,10,4.02,ID,1701586596,-241.67999999999995
75,shimoda,34.6667,138.95,14.200000000000045,57,3,12.33,JP,1701586597,-258.94999999999993
76,pitimbu,-7.4706,-34.8086,25.33000000000004,84,100,3.45,BR,1701586598,-247.81999999999994
77,wajir,1.7471,40.0573,27.980000000000018,69,0,2.06,KE,1701586599,-245.16999999999996
78,sitka,57.0531,-135.33,2.9399999999999977,92,66,2.64,US,1701586600,-270.21
79,carnarvon,-24.8667,113.6333,26.840000000000032,57,0,9.57,AU,1701586601,-246.30999999999995
80,ambikapur,23.1167,83.2,26.700000000000045,46,100,2.59,IN,1701586602,-246.44999999999993
81,panitian,9.0965,118.0864,29.140000000000043,75,85,4.78,PH,1701586604,-244.00999999999993
82,ilulissat,69.2167,-51.1,-13.099999999999966,72,100,2.58,GL,1701586605,-286.24999999999994
83,san antonio de pale,-1.4014,5.6325,26.82000000000005,80,91,2.95,GQ,1701586606,-246.32999999999993
84,nova sintra,14.8667,-24.7167,22.52000000000004,78,77,7.84,CV,1701586607,-250.62999999999994
85,preobrazheniye,42.9019,133.9064,-0.8899999999999864,61,0,1.39,RU,1701586608,-274.03999999999996
86,bengkulu,-3.8004,102.2655,27.03000000000003,82,98,3.69,ID,1701586609,-246.11999999999995
87,coahuayana de hidalgo,18.7,-103.6583,24.220000000000027,76,100,1.63,MX,1701586610,-248.92999999999995
88,iskateley,67.6803,53.1512,-12.769999999999982,94,100,4.92,RU,1701586611,-285.91999999999996
89,donmatias,6.4857,-75.395,14.57000000000005,93,90,0.37,CO,1701586612,-258.5799999999999
90,cabo san lucas,22.8909,-109.9124,21.950000000000045,69,0,0.45,MX,1701586613,-251.19999999999993
91,fuyuan,46.4333,127.0833,-7.029999999999973,86,18,7.64,CN,1701586614,-280.17999999999995
92,aioun,16.6614,-9.6149,23.110000000000014,17,32,4.7,MR,1701586406,-250.03999999999996
93,thompson,55.7435,-97.8558,-9.909999999999968,92,75,1.54,CA,1701586617,-283.05999999999995
94,ancud,-41.8697,-73.8203,5.510000000000048,84,7,2.06,CL,1701586618,-267.63999999999993
95,brokopondo,4.75,-55.1667,23.80000000000001,92,74,2.92,SR,1701586619,-249.34999999999997
96,avarua,-21.2078,-159.775,24.03000000000003,83,40,2.57,CK,1701586620,-249.11999999999995
97,vilyuchinsk,52.9306,158.4028,-6.7099999999999795,83,59,1.92,RU,1701586621,-279.85999999999996
98,constantia,44.1833,28.65,9.379999999999995,70,100,3.06,RO,1701586622,-263.77
99,cesme,38.3228,26.3064,19.129999999999995,81,100,13.1,TR,1701586623,-254.01999999999998
100,vlore,40.4667,19.4897,15.740000000000009,76,100,3.0,AL,1701586333,-257.40999999999997
101,bolobo,-2.1667,16.2333,23.129999999999995,89,76,0.81,CD,1701586625,-250.01999999999998
102,isla mujeres,21.2311,-86.731,25.650000000000034,87,84,5.08,MX,1701586626,-247.49999999999994
103,guiuan,11.0333,125.7247,27.960000000000036,80,98,7.98,PH,1701586629,-245.18999999999994
104,glace bay,46.1969,-59.957,4.32000000000005,94,100,6.17,CA,1701586630,-268.8299999999999
105,moranbah,-22.0016,148.0466,26.370000000000005,68,100,12.53,AU,1701586631,-246.77999999999997
106,stanley,54.868,-1.6985,-0.8199999999999932,96,75,1.03,GB,1701586364,-273.96999999999997
107,sinan,34.8262,126.1086,8.060000000000002,62,5,5.61,KR,1701586633,-265.09
108,alice springs,-23.7,133.8833,37.75,16,19,5.14,AU,1701586634,-235.39999999999998
109,ciudad lazaro cardenas,17.9583,-102.2,24.910000000000025,78,98,1.62,MX,1701586636,-248.23999999999995
110,bethel,41.3712,-73.414,8.340000000000032,89,100,2.06,US,1701586637,-264.80999999999995
111,atafu village,-8.5421,-172.5159,28.33000000000004,73,100,5.63,TK,1701586638,-244.81999999999994
112,rabaul,-4.1967,152.1721,27.99000000000001,78,100,2.76,PG,1701586639,-245.15999999999997
113,invercargill,-46.4,168.35,10.370000000000005,59,7,6.71,NZ,1701586640,-262.78
114,la passe,45.5549,-0.8967,-0.8700000000000045,89,27,5.38,FR,1701586641,-274.02
115,al ain city,24.1917,55.7606,23.79000000000002,73,0,2.57,AE,1701586420,-249.35999999999996
116,olonkinbyen,70.9221,-8.7187,0.29000000000002046,94,72,7.38,SJ,1701586644,-272.85999999999996
117,wenxing,28.6667,112.8833,10.04000000000002,54,100,0.69,CN,1701586645,-263.10999999999996
118,mossel bay,-34.1831,22.146,18.960000000000036,74,97,4.54,ZA,1701586646,-254.18999999999994
119,muisne,0.6,-80.0333,24.930000000000007,82,100,2.96,EC,1701586648,-248.21999999999997
120,chenaran,36.6455,59.1212,15.450000000000045,23,10,2.95,IR,1701586650,-257.69999999999993
121,mount gambier,-37.8333,140.7667,18.670000000000016,62,100,4.53,AU,1701586651,-254.47999999999996
122,birzebbuga,35.8258,14.5269,17.860000000000014,67,0,5.14,MT,1701586652,-255.28999999999996
123,visby,57.6409,18.296,-0.8799999999999955,69,100,7.72,SE,1701586653,-274.03
124,tindouf,27.6711,-8.1474,9.25,66,0,3.09,DZ,1701586654,-263.9
125,puerto baquerizo moreno,-0.9,-89.6,23.480000000000018,85,76,5.18,EC,1701586655,-249.66999999999996
126,nishifukuma,33.7667,130.4667,14.050000000000011,48,7,3.15,JP,1701586656,-259.09999999999997
127,tolanaro,-25.0319,46.9987,26.04000000000002,50,40,5.66,MG,1701586657,-247.10999999999996
128,broken hill,-31.95,141.4333,28.640000000000043,18,0,3.66,AU,1701586660,-244.50999999999993
129,fale old settlement,-9.3852,-171.2468,28.439999999999998,72,100,6.32,TK,1701586662,-244.70999999999998
130,tra mhor,52.1624,-7.1524,4.230000000000018,84,100,1.79,IE,1701586663,-268.91999999999996
131,ploneour-lanvern,47.9,-4.2833,10.160000000000025,93,75,3.09,FR,1701586664,-262.98999999999995
132,nemuro,43.3236,145.575,3.7900000000000205,57,41,4.79,JP,1701586665,-269.35999999999996
133,iwon-up,40.3231,128.6553,2.7200000000000273,44,0,2.66,KP,1701586666,-270.42999999999995
134,dawei,14.0833,98.2,32.379999999999995,51,100,3.22,MM,1701586667,-240.76999999999998
135,anadyr,64.75,177.4833,-18.71999999999997,84,0,3.0,RU,1701586668,-291.86999999999995
136,remire-montjoly,4.9167,-52.2667,23.02000000000004,94,100,0.0,GF,1701586669,-250.12999999999994
137,tabuk,17.4189,121.4443,27.980000000000018,70,28,2.41,PH,1701586670,-245.16999999999996
138,sandnessjoen,66.0217,12.6316,-19.70999999999998,69,65,5.1,NO,1701586671,-292.85999999999996
139,brookings,44.3114,-96.7984,-0.8599999999999568,66,8,3.52,US,1701586673,-274.00999999999993
140,anapa,44.8908,37.3239,17.189999999999998,63,0,8.0,RU,1701586622,-255.95999999999998
141,road town,18.4167,-64.6167,26.860000000000014,73,6,7.49,VG,1701586404,-246.28999999999996
142,lorengau,-2.0226,147.2712,29.08000000000004,71,97,1.21,PG,1701586676,-244.06999999999994
143,whangarei,-35.7317,174.3239,18.79000000000002,94,99,2.11,NZ,1701586677,-254.35999999999996
144,vadso,70.0744,29.7487,0.09000000000003183,93,100,6.17,NO,1701586679,-273.05999999999995
145,wailua homesteads,22.0669,-159.378,21.53000000000003,83,1,1.98,US,1701586680,-251.61999999999995
146,petropavlovsk-kamchatsky,53.0452,158.6483,-7.529999999999973,76,75,3.58,RU,1701586473,-280.67999999999995
147,daru,-9.0763,143.2092,28.850000000000023,75,99,5.28,PG,1701586682,-244.29999999999995
148,trinity beach,-16.7888,145.6968,30.560000000000002,77,100,3.6,AU,1701586683,-242.58999999999997
149,chahar burj,34.2448,62.1917,16.120000000000005,29,0,0.69,AF,1701586684,-257.03
150,grand falls-windsor,48.9332,-55.6649,-1.3899999999999864,94,93,1.69,CA,1701586685,-274.53999999999996
151,kabalo,-6.05,26.9167,22.480000000000018,95,100,0.64,CD,1701586687,-250.66999999999996
152,georgetown,5.4112,100.3354,31.960000000000036,75,40,4.63,MY,1701586688,-241.18999999999994
153,bodo,67.28,14.405,-5.1299999999999955,64,0,7.2,NO,1701586689,-278.28
154,uturoa,-16.7333,-151.4333,27.480000000000018,78,78,8.89,PF,1701586690,-245.66999999999996
155,tambacounda,13.7539,-13.7586,25.210000000000036,19,100,3.41,SN,1701586691,-247.93999999999994
156,guerrero negro,27.9769,-114.0611,17.54000000000002,69,0,5.04,MX,1701586692,-255.60999999999996
157,kudahuvadhoo,2.6708,72.8944,27.439999999999998,80,100,4.98,MV,1701586693,-245.70999999999998
158,shush,32.1942,48.2436,20.900000000000034,29,0,1.12,IR,1701586694,-252.24999999999994
159,stung treng,13.5259,105.9683,32.879999999999995,49,100,2.63,KH,1701586695,-240.26999999999998
160,williamsburg,37.2707,-76.7075,15.439999999999998,87,100,0.0,US,1701586455,-257.71
161,port lincoln,-34.7333,135.8667,21.150000000000034,53,100,2.89,AU,1701586698,-251.99999999999994
162,rhinelander,45.6366,-89.4121,-0.15999999999996817,88,100,2.17,US,1701586699,-273.30999999999995
163,metlili chaamba,32.2667,3.6333,8.520000000000039,53,0,2.57,DZ,1701586700,-264.62999999999994
164,nobres,-14.7203,-56.3275,24.170000000000016,79,94,0.82,BR,1701586701,-248.97999999999996
165,ceeldheer,3.8488,47.1806,29.400000000000034,58,60,7.84,SO,1701586702,-243.74999999999994
166,ola,59.5833,151.2833,-15.819999999999993,87,100,3.88,RU,1701586703,-288.96999999999997
167,santiago del estero,-27.7951,-64.2615,22.720000000000027,95,100,5.54,AR,1701586705,-250.42999999999995
168,port mathurin,-19.6833,63.4167,25.689999999999998,86,75,8.62,MU,1701586706,-247.45999999999998
169,edd,13.9297,41.6925,30.58000000000004,41,33,6.25,ER,1701586707,-242.56999999999994
170,zhob,31.3411,69.4481,15.080000000000041,27,99,1.09,PK,1701586708,-258.06999999999994
171,punta arenas,-53.15,-70.9167,5.060000000000002,70,75,3.09,CL,1701586709,-268.09
172,colares,38.7992,-9.4469,10.740000000000009,88,91,3.13,PT,1701586710,-262.40999999999997
173,la'ie,21.6477,-157.9253,23.950000000000045,82,1,1.34,US,1701586711,-249.19999999999993
174,jinxiang,27.4327,120.6062,12.600000000000023,78,100,4.57,CN,1701586712,-260.54999999999995
175,port moresby,-9.4431,147.1797,28.680000000000007,79,40,5.14,PG,1701586517,-244.46999999999997
176,kuhmo,64.1333,29.5167,-14.099999999999966,99,90,0.95,FI,1701586714,-287.24999999999994
177,castillos,-34.1667,-53.8333,16.350000000000023,97,23,3.63,UY,1701586715,-256.79999999999995
178,lihue,21.9789,-159.3672,21.870000000000005,83,2,2.29,US,1701586716,-251.27999999999997
179,san pedro pochutla,15.7333,-96.4667,23.460000000000036,77,5,1.2,MX,1701586718,-249.68999999999994
180,mejit,10.2753,170.8646,27.210000000000036,77,75,8.33,MH,1701586719,-245.93999999999994
181,edinboro,41.8742,-80.1317,7.400000000000034,96,94,1.83,US,1701586720,-265.74999999999994
182,arraial do cabo,-22.9661,-42.0278,23.210000000000036,95,88,6.2,BR,1701586721,-249.93999999999994
183,belomorsk,64.5232,34.7668,-10.729999999999961,98,100,1.41,RU,1701586723,-283.87999999999994
184,coyhaique,-45.5752,-72.0662,4.340000000000032,75,100,1.03,CL,1701586724,-268.80999999999995
185,irtyshsk,53.3333,75.4572,2.5200000000000387,72,100,10.48,KZ,1701586725,-270.62999999999994
186,gunnedah,-30.9833,150.25,29.850000000000023,19,61,5.54,AU,1701586727,-243.29999999999995
187,ambodifotatra,-16.9833,49.85,25.03000000000003,94,100,8.23,MG,1701586728,-248.11999999999995
188,darwin,-12.4611,130.8418,31.08000000000004,74,100,1.54,AU,1701586478,-242.06999999999994
189,la ronge,55.1001,-105.2842,-9.859999999999957,92,75,2.06,CA,1701586730,-283.00999999999993
190,bulayevo,54.9056,70.4439,-3.339999999999975,93,100,10.24,KZ,1701586731,-276.48999999999995
191,khromtau,50.2503,58.4347,-2.7099999999999795,71,100,8.47,KZ,1701586732,-275.85999999999996
192,zouerate,22.7187,-12.4521,17.450000000000045,62,10,2.61,MR,1701586733,-255.69999999999993
193,ta`u,-14.2336,-169.5144,26.77000000000004,81,100,7.58,AS,1701586734,-246.37999999999994
194,lobito,-12.3481,13.5456,27.29000000000002,72,100,4.72,AO,1701586736,-245.85999999999996
195,cidreira,-30.1811,-50.2056,22.0,96,100,0.44,BR,1701586737,-251.14999999999998
196,talnakh,69.4865,88.3972,-33.18999999999997,90,10,0.77,RU,1701586738,-306.3399999999999
197,kapuskasing,49.4169,-82.4331,-14.949999999999989,92,0,1.03,CA,1701586739,-288.09999999999997
198,jamaame,0.0697,42.745,31.700000000000045,55,20,5.1,SO,1701586740,-241.44999999999993
199,bangassou,4.7413,22.8184,23.760000000000048,85,100,0.68,CF,1701586741,-249.38999999999993
200,merowe,18.4833,31.8167,26.25,28,0,4.96,SD,1701586742,-246.89999999999998
201,rechka-vydrino,51.485,104.8461,-1.9599999999999795,88,100,4.27,RU,1701586744,-275.10999999999996
202,kerikeri,-35.2268,173.9474,20.510000000000048,92,100,2.24,NZ,1701586745,-252.63999999999993
203,haiku-pauwela,20.9219,-156.3051,25.02000000000004,84,13,0.89,US,1701586746,-248.12999999999994
204,shahpura,27.3833,75.9667,23.220000000000027,42,29,1.53,IN,1701586747,-249.92999999999995
205,kill devil hills,36.0307,-75.676,20.0,97,100,2.06,US,1701586748,-253.14999999999998
206,dongola,19.1667,30.4833,23.590000000000032,20,0,5.68,SD,1701586749,-249.55999999999995
207,saudarkrokur,65.7461,-19.6394,-5.139999999999986,75,100,1.63,IS,1701586750,-278.28999999999996
208,male,4.1748,73.5089,30.970000000000027,74,40,6.17,MV,1701586543,-242.17999999999995
209,elliot lake,46.3834,-82.6331,-6.279999999999973,78,100,2.91,CA,1701586752,-279.42999999999995
210,hawaiian paradise park,19.5933,-154.9731,22.80000000000001,98,100,2.57,US,1701586753,-250.34999999999997
211,narvik,68.4384,17.4272,-7.079999999999984,82,66,2.89,NO,1701586664,-280.22999999999996
212,sao vicente,-23.9631,-46.3919,28.480000000000018,26,100,1.15,BR,1701586755,-244.66999999999996
213,saint-philippe,-21.3585,55.7679,27.840000000000032,84,84,4.44,RE,1701586757,-245.30999999999995
214,selfoss,63.9331,-20.9971,-2.909999999999968,57,100,4.6,IS,1701586758,-276.05999999999995
215,kirakira,-10.4544,161.9205,27.189999999999998,87,100,5.36,SB,1701586760,-245.95999999999998
216,pasni,25.2631,63.471,24.310000000000002,65,0,1.72,PK,1701586761,-248.83999999999997
217,chonchi,-42.6128,-73.8092,5.560000000000002,85,58,1.1,CL,1701586762,-267.59
218,belabo,4.9333,13.3,22.27000000000004,86,45,0.38,CM,1701586472,-250.87999999999994
219,kiunga,-6.1219,141.2906,26.640000000000043,95,99,1.32,PG,1701586765,-246.50999999999993
220,sanibel,26.449,-82.0223,23.33000000000004,95,82,1.79,US,1701586766,-249.81999999999994
221,tofol,5.3248,163.0078,28.58000000000004,79,100,8.71,FM,1701586767,-244.56999999999994
222,luderitz,-26.6481,15.1594,22.78000000000003,47,3,9.8,NA,1701586768,-250.36999999999995
223,macomb,40.4592,-90.6718,3.590000000000032,96,100,0.89,US,1701586770,-269.55999999999995
224,lazaro cardenas,17.9583,-102.2,24.910000000000025,78,98,1.62,MX,1701586771,-248.23999999999995
225,karratha,-20.7377,116.8463,29.49000000000001,58,0,8.78,AU,1701586772,-243.65999999999997
226,rocky mountain house,52.3668,-114.9188,-5.939999999999998,79,56,0.51,CA,1701586776,-279.09
227,westport,41.1415,-73.3579,9.620000000000005,92,100,3.6,US,1701586777,-263.53
228,fremantle,-32.05,115.7667,28.879999999999995,55,40,5.66,AU,1701586778,-244.26999999999998
229,phu khuong,11.2833,106.1333,30.140000000000043,60,100,0.69,VN,1701586779,-243.00999999999993
230,alta,69.9689,23.2717,-10.409999999999968,83,100,1.03,NO,1701586780,-283.55999999999995
231,fada,9.5667,8.3,22.660000000000025,25,83,1.7,NG,1701586782,-250.48999999999995
232,tokar,18.4254,37.729,29.810000000000002,55,39,9.28,SD,1701586783,-243.33999999999997
233,tomatlan,19.9333,-105.25,22.110000000000014,69,100,1.41,MX,1701586786,-251.03999999999996
234,tocache,-8.1842,-76.5125,22.32000000000005,89,93,0.36,PE,1701586787,-250.82999999999993
235,hithadhoo,-0.6,73.0833,27.879999999999995,73,4,4.69,MV,1701586788,-245.26999999999998
236,kangding,30.0513,101.9603,12.600000000000023,48,75,0.14,CN,1701586789,-260.54999999999995
237,ixtapa,20.7,-105.2,22.900000000000034,82,100,0.88,MX,1701586790,-250.24999999999994
238,sisimiut,66.9395,-53.6735,-6.019999999999982,77,100,2.97,GL,1701586792,-279.16999999999996
239,kavieng,-2.5744,150.7967,28.660000000000025,75,19,2.88,PG,1701586793,-244.48999999999995
240,badger,64.8,-147.5333,-23.329999999999984,83,9,0.76,US,1701586794,-296.47999999999996
241,fortaleza,-3.7227,-38.5247,28.930000000000007,71,20,2.57,BR,1701586795,-244.21999999999997
242,hinton,53.4001,-117.5857,-9.45999999999998,90,9,2.66,CA,1701586796,-282.60999999999996
243,banda aceh,5.5577,95.3222,26.52000000000004,85,100,1.91,ID,1701586797,-246.62999999999994
244,codrington,-38.2667,141.9667,18.83000000000004,66,94,6.42,AU,1701586798,-254.31999999999994
245,zheshart,62.0731,49.5733,-16.049999999999955,98,91,1.55,RU,1701586799,-289.19999999999993
246,banikoara,11.2985,2.4386,23.27000000000004,22,8,1.9,BJ,1701586800,-249.87999999999994
247,kasaragod,12.5,75.0,32.710000000000036,49,100,1.84,IN,1701586802,-240.43999999999994
248,vorgashor,67.5833,63.95,-25.96999999999997,99,25,1.79,RU,1701586803,-299.11999999999995
249,byalynichy,53.9983,29.7126,-6.189999999999998,95,100,5.46,BY,1701586806,-279.34
250,babol,36.5513,52.679,17.110000000000014,55,0,2.05,IR,1701586808,-256.03999999999996
251,nar'yan-mar,67.6713,53.087,-12.71999999999997,94,100,4.92,RU,1701586525,-285.86999999999995
252,charters towers,-20.1,146.2667,26.710000000000036,70,82,9.11,AU,1701586811,-246.43999999999994
253,weno,7.4515,151.8468,28.660000000000025,77,9,7.84,FM,1701586812,-244.48999999999995
254,stirling,56.119,-3.9368,1.1100000000000136,91,10,1.28,GB,1701586813,-272.03999999999996
255,tokmok,42.8417,75.3016,15.160000000000025,21,24,2.0,KG,1701586814,-257.98999999999995
256,severo-yeniseyskiy,60.3725,93.0408,-10.789999999999964,94,100,3.58,RU,1701586815,-283.93999999999994
257,sao tome,0.3365,6.7273,26.720000000000027,78,97,2.06,ST,1701586816,-246.42999999999995
258,nowa sol,51.8033,15.717,-2.2299999999999613,97,53,3.56,PL,1701586818,-275.37999999999994
259,aasiaat,68.7098,-52.8699,-13.359999999999957,85,78,1.88,GL,1701586819,-286.50999999999993
260,manismata,-2.4667,111.0333,31.78000000000003,65,58,0.34,ID,1701586820,-241.36999999999995
261,conception bay south,47.4999,-52.9981,2.080000000000041,94,100,3.27,CA,1701586823,-271.06999999999994
262,suva,-18.1416,178.4415,24.75,92,9,0.68,FJ,1701586824,-248.39999999999998
263,i-n-salah,27.1935,2.4607,17.470000000000027,17,0,3.29,DZ,1701586825,-255.67999999999995
264,hermanus,-34.4187,19.2345,18.680000000000007,63,14,6.31,ZA,1701586218,-254.46999999999997
265,cruzeiro do sul,-29.5128,-51.9853,23.07000000000005,92,100,0.43,BR,1701586828,-250.07999999999993
266,tamiahua,21.2667,-97.45,22.439999999999998,90,100,5.7,MX,1701586829,-250.70999999999998
267,bandarbeyla,9.4942,50.8122,27.75,56,95,10.9,SO,1701586830,-245.39999999999998
268,tamanrasset,22.785,5.5228,5.9500000000000455,24,0,1.03,DZ,1701586831,-267.19999999999993
269,bel ombre,-4.6167,55.4167,28.640000000000043,72,82,4.01,SC,1701586833,-244.50999999999993
270,mitu,1.1983,-70.1733,22.75,84,88,0.81,CO,1701586834,-250.39999999999998
271,cao bang,22.6667,106.25,16.129999999999995,85,100,0.91,VN,1701586835,-257.02
272,fort bragg,35.139,-79.006,18.08000000000004,94,100,0.0,US,1701586836,-255.06999999999994
273,kimbe,-5.5502,150.1429,27.28000000000003,90,100,1.25,PG,1701586837,-245.86999999999995
274,geraldton,-28.7667,114.6,27.230000000000018,54,97,6.17,AU,1701586838,-245.91999999999996
275,aykhal,66.0,111.5,-37.68999999999997,100,40,2.05,RU,1701586839,-310.8399999999999
276,al bayda',32.7627,21.7551,16.74000000000001,34,100,1.72,LY,1701586840,-256.40999999999997
277,uvira,-3.4067,29.1458,26.78000000000003,83,100,1.71,CD,1701586841,-246.36999999999995
278,kabare,-2.4683,28.8242,20.930000000000007,83,77,0.71,CD,1701586842,-252.21999999999997
279,sukhobezvodnoye,57.0491,44.8891,-10.639999999999986,96,100,1.51,RU,1701586843,-283.78999999999996
280,chibougamau,49.9168,-74.3659,-21.20999999999998,84,75,0.0,CA,1701586827,-294.35999999999996
281,mili,6.0815,171.735,26.340000000000032,90,100,7.94,MH,1701586846,-246.80999999999995
282,tari,12.4086,4.4914,22.180000000000007,13,36,3.39,NG,1701586847,-250.96999999999997
283,keflavik,64.0049,-22.5624,-2.759999999999991,80,40,3.09,IS,1701586848,-275.90999999999997
284,nchelenge,-9.3451,28.734,20.100000000000023,94,100,1.15,ZM,1701586849,-253.04999999999995
285,pico truncado,-46.7949,-67.9573,4.650000000000034,57,11,5.43,AR,1701586640,-268.49999999999994
286,bairnsdale,-37.8333,147.6167,18.920000000000016,70,48,1.79,AU,1701586835,-254.22999999999996
287,lata,40.1629,-8.3327,3.930000000000007,91,77,1.81,PT,1701586852,-269.21999999999997
288,quellon,-43.1167,-73.6167,5.720000000000027,92,100,1.17,CL,1701586853,-267.42999999999995
289,makoua,0.0069,15.6333,22.480000000000018,96,100,0.17,CG,1701586855,-250.66999999999996
290,bubaque,11.2833,-15.8333,27.77000000000004,59,100,1.73,GW,1701586856,-245.37999999999994
291,albufeira,37.0882,-8.2503,10.57000000000005,75,100,1.51,PT,1701586857,-262.5799999999999
292,laguna,38.421,-121.4238,14.160000000000025,84,100,4.12,US,1701586858,-258.98999999999995
293,lagos,6.5833,3.75,25.180000000000007,86,96,0.96,NG,1701586631,-247.96999999999997
294,dungannon,54.5034,-6.7672,-1.2699999999999818,89,100,1.82,GB,1701586860,-274.41999999999996
295,jaicos,-7.3592,-41.1378,28.05000000000001,49,95,2.36,BR,1701586861,-245.09999999999997
296,koksovyy,48.1967,40.5989,10.439999999999998,77,100,6.3,RU,1701586863,-262.71
297,greymouth,-42.4667,171.2,16.210000000000036,97,100,1.84,NZ,1701586864,-256.93999999999994
298,new norfolk,-42.7826,147.0587,19.28000000000003,63,34,2.11,AU,1701586865,-253.86999999999995
299,berezovyy,51.6667,135.7,-12.539999999999964,78,55,2.15,RU,1701586866,-285.68999999999994
300,lucheng,31.2336,117.2806,13.57000000000005,23,100,2.56,CN,1701586868,-259.5799999999999
301,ritchie,-29.038,24.6028,26.840000000000032,30,100,2.31,ZA,1701586869,-246.30999999999995
302,kamiiso,41.8167,140.65,1.8700000000000045,81,32,2.16,JP,1701586870,-271.28
303,laojunmiao,39.8333,97.7333,5.1200000000000045,21,0,6.24,CN,1701586871,-268.03
304,gisborne,-38.6533,178.0042,17.760000000000048,76,100,2.25,NZ,1701586872,-255.38999999999993
305,balkanabat,39.5108,54.3671,18.33000000000004,31,0,1.66,TM,1701586873,-254.81999999999994
306,isafjordur,66.0755,-23.124,-0.16999999999995907,84,100,8.12,IS,1701586874,-273.31999999999994
307,lae,-6.7221,146.9847,28.629999999999995,75,100,3.12,PG,1701586875,-244.51999999999998
308,nova vicosa,-17.8919,-39.3719,24.680000000000007,82,0,4.34,BR,1701586877,-248.46999999999997
309,usinsk,65.9939,57.5281,-11.069999999999993,95,100,0.89,RU,1701586878,-284.21999999999997
310,howard springs,-12.497,131.047,31.04000000000002,80,100,2.74,AU,1701586879,-242.10999999999996
311,acarau,-2.8856,-40.12,25.100000000000023,81,24,3.54,BR,1701586880,-248.04999999999995
312,jamestown,42.097,-79.2353,5.810000000000002,100,75,2.57,US,1701586816,-267.34
313,eno,62.8051,30.1542,-12.71999999999997,99,93,0.74,FI,1701586882,-285.86999999999995
314,kostyantynivka,48.5277,37.7069,11.75,80,100,8.01,UA,1701586885,-261.4
315,macedo de cavaleiros,41.5382,-6.9611,1.8799999999999955,90,100,1.0,PT,1701586886,-271.27
316,magadan,59.5667,150.8,-17.69999999999999,84,100,2.83,RU,1701586815,-290.84999999999997
317,tangalle,6.024,80.7911,30.090000000000032,73,40,7.07,LK,1701586888,-243.05999999999995
318,constitucion,-35.3333,-72.4167,9.879999999999995,54,0,4.73,CL,1701586889,-263.27
319,solone,48.2081,34.8721,10.870000000000005,90,100,6.68,UA,1701586890,-262.28
320,fort mcmurray,56.7268,-111.381,-12.269999999999982,85,100,2.57,CA,1701586892,-285.41999999999996
321,hailar,49.2,119.7,-6.92999999999995,87,93,5.36,CN,1701586893,-280.0799999999999
322,bara,10.3744,10.7288,25.410000000000025,18,24,2.46,NG,1701586894,-247.73999999999995
323,cuitzeo (la estancia),20.3333,-102.7833,17.52000000000004,70,100,1.32,MX,1701586895,-255.62999999999994
324,saint marys,30.7305,-81.5465,20.620000000000005,93,100,2.57,US,1701586622,-252.52999999999997
325,ponta delgada,37.7333,-25.6667,13.400000000000034,82,75,3.09,PT,1701586713,-259.74999999999994
326,la sarre,48.8002,-79.1996,-12.949999999999989,97,99,1.51,CA,1701586899,-286.09999999999997
327,agios nikolaos,35.1914,25.7133,19.430000000000007,57,100,4.63,GR,1701586901,-253.71999999999997
328,walvis bay,-22.9575,14.5053,18.379999999999995,67,100,1.61,NA,1701586904,-254.76999999999998
329,palikir - national government center,6.9248,158.1611,27.980000000000018,78,83,7.43,FM,1701586905,-245.16999999999996
330,nema,57.5067,50.5011,-14.659999999999968,96,33,2.02,RU,1701586906,-287.80999999999995
331,saint-joseph,-21.3667,55.6167,27.480000000000018,85,81,3.99,RE,1701586805,-245.66999999999996
332,qui nhon,13.7667,109.2333,26.77000000000004,83,81,3.4,VN,1701586832,-246.37999999999994
333,tanout,14.9709,8.8879,21.04000000000002,16,5,3.53,NE,1701586910,-252.10999999999996
334,zhangzhou,24.5133,117.6556,22.57000000000005,54,41,3.18,CN,1701586911,-250.57999999999993
335,xiaoweizhai,26.1903,107.5125,9.960000000000036,85,100,1.31,CN,1701586912,-263.18999999999994
336,gadzhiyevo,69.2551,33.3362,-1.2899999999999636,90,100,5.94,RU,1701586913,-274.43999999999994
337,al jawf,29.5,38.75,18.060000000000002,41,0,4.74,SA,1701586915,-255.08999999999997
338,ujae,8.9322,165.7642,27.890000000000043,75,100,9.01,MH,1701586916,-245.25999999999993
339,azul,-36.777,-59.8585,10.270000000000039,58,98,2.14,AR,1701586917,-262.87999999999994
340,mbandaka,0.0487,18.2603,21.600000000000023,96,100,2.22,CD,1701586919,-251.54999999999995
341,bahir dar,11.5936,37.3908,22.05000000000001,51,32,1.54,ET,1701586916,-251.09999999999997
342,lompoc,34.6391,-120.4579,12.740000000000009,88,0,4.02,US,1701586921,-260.40999999999997
343,changli,39.7042,119.1506,7.400000000000034,23,0,5.94,CN,1701586922,-265.74999999999994
344,horta,38.5333,-28.6333,14.32000000000005,57,99,8.24,PT,1701586924,-258.8299999999999
345,guane,22.2025,-84.0875,23.5,94,47,2.09,CU,1701586925,-249.64999999999998
346,santana,-0.0583,-51.1817,28.100000000000023,78,61,3.09,BR,1701586798,-245.04999999999995
347,ula,22.7225,88.5556,27.99000000000001,61,40,3.6,IN,1701586927,-245.15999999999997
348,bredy,52.4153,60.3411,-4.42999999999995,75,7,8.6,RU,1701586928,-277.5799999999999
349,hotan,37.0997,79.9269,8.220000000000027,23,72,2.48,CN,1701586929,-264.92999999999995
350,turkmenbasy,40.0222,52.9552,15.78000000000003,49,0,2.95,TM,1701586930,-257.36999999999995
351,sidney,-33.8679,151.2073,24.189999999999998,71,40,11.83,AU,1701586804,-248.95999999999998
352,grande prairie,55.1667,-118.8027,-3.4799999999999613,76,2,2.13,CA,1701586933,-276.62999999999994
353,padang,-0.9492,100.3543,28.390000000000043,78,98,2.53,ID,1701586790,-244.75999999999993
354,sabang,5.8933,95.3214,27.010000000000048,81,100,5.31,ID,1701586935,-246.13999999999993
355,argo,37.6333,22.7333,14.879999999999995,78,100,1.38,GR,1701586936,-258.27
356,east ballina,-28.8667,153.5833,29.33000000000004,72,71,5.16,AU,1701586938,-243.81999999999994
357,dennery,13.8996,-60.8879,26.32000000000005,84,27,0.89,LC,1701586939,-246.82999999999993
358,mhamid,29.82,-5.72,13.810000000000002,41,0,4.32,MA,1701586940,-259.34
359,kayangel,8.0823,134.7173,28.850000000000023,78,72,8.25,PW,1701586941,-244.29999999999995
360,kathmandu,27.7167,85.3167,21.120000000000005,35,20,1.54,NP,1701586700,-252.02999999999997
361,mednogorsk,51.4128,57.595,-5.099999999999966,90,100,6.26,RU,1701586943,-278.24999999999994
362,sao jose da coroa grande,-8.8978,-35.1478,25.600000000000023,84,80,3.15,BR,1701586945,-247.54999999999995
363,mount darwin,-16.7725,31.5838,25.870000000000005,37,3,3.05,ZW,1701586946,-247.27999999999997
364,kavaratti,10.5669,72.642,28.660000000000025,73,96,5.95,IN,1701586947,-244.48999999999995
365,murun-kuren,49.6342,100.1625,-6.909999999999968,77,7,1.79,MN,1701586948,-280.05999999999995
366,bardai,11.65,7.2333,21.010000000000048,15,9,3.03,NG,1701586950,-252.13999999999993
367,salem,11.65,78.1667,28.110000000000014,74,75,2.06,IN,1701586863,-245.03999999999996
368,mana,5.6592,-53.7767,25.010000000000048,87,17,3.68,GF,1701586952,-248.13999999999993
369,queenstown,-31.8976,26.8753,28.310000000000002,28,91,6.63,ZA,1701586913,-244.83999999999997
370,dondukovskaya,44.8819,40.3627,14.689999999999998,58,100,1.63,RU,1701586954,-258.46
371,gobabis,-22.45,18.9667,24.05000000000001,47,100,4.96,NA,1701586955,-249.09999999999997
372,vila franca do campo,37.7167,-25.4333,13.230000000000018,69,100,7.26,PT,1701586956,-259.91999999999996
373,clarion,41.2148,-79.3853,8.260000000000048,95,100,0.98,US,1701586957,-264.88999999999993
374,timimoun,29.2639,0.231,14.090000000000032,47,0,7.71,DZ,1701586958,-259.05999999999995
375,smidovich,48.6,133.8167,-14.159999999999968,94,78,3.58,RU,1701586961,-287.30999999999995
376,smithers,54.7804,-127.1743,-3.819999999999993,100,100,1.03,CA,1701586962,-276.96999999999997
377,zhangatas,43.5667,69.75,11.610000000000014,54,100,10.7,KZ,1701586963,-261.53999999999996
378,molde,62.7375,7.1591,-5.159999999999968,86,14,5.14,NO,1701586866,-278.30999999999995
379,isangel,-19.55,169.2667,25.360000000000014,77,67,4.53,VU,1701586965,-247.78999999999996
380,santa elena de uairen,4.6167,-61.1333,18.910000000000025,75,5,1.75,VE,1701586966,-254.23999999999995
381,ad dilam,23.9915,47.1627,21.879999999999995,24,55,1.26,SA,1701586846,-251.26999999999998
382,tidjikja,18.5564,-11.4271,21.939999999999998,32,33,4.35,MR,1701586968,-251.20999999999998
383,beipiao,41.7919,120.7792,3.8100000000000023,28,6,4.29,CN,1701586969,-269.34
384,guacimo,10.2104,-83.6807,22.960000000000036,88,100,1.1,CR,1701586971,-250.18999999999994
385,richards bay,-28.783,32.0377,28.379999999999995,48,5,5.89,ZA,1701586972,-244.76999999999998
386,port saint john's,-31.6229,29.5448,27.0,63,72,2.51,ZA,1701586974,-246.14999999999998
387,necochea,-38.5473,-58.7368,8.53000000000003,60,0,1.26,AR,1701586975,-264.61999999999995
388,san julian,21.0167,-102.1667,14.870000000000005,55,100,0.45,MX,1701586976,-258.28
389,kirensk,57.7853,108.1119,-6.329999999999984,87,100,4.29,RU,1701586978,-279.47999999999996
390,chui,-33.6971,-53.4616,17.120000000000005,94,0,2.83,UY,1701586979,-256.03
391,babolsar,36.7025,52.6576,17.25,55,0,2.05,IR,1701586980,-255.89999999999998
392,rajnagar,24.8833,79.9167,27.629999999999995,44,20,3.58,IN,1701586981,-245.51999999999998
393,mwaya,-9.55,33.95,26.28000000000003,72,82,0.87,TZ,1701586983,-246.86999999999995
394,ha'il,27.5219,41.6907,17.010000000000048,67,0,3.09,SA,1701586984,-256.13999999999993
395,al khawr,25.7667,51.3167,24.970000000000027,45,6,5.02,QA,1701586985,-248.17999999999995
396,nelson bay,-32.7167,152.15,24.49000000000001,75,20,2.68,AU,1701586986,-248.65999999999997
397,hasaki,35.7333,140.8333,13.220000000000027,44,0,7.35,JP,1701586987,-259.92999999999995
398,bikenibeu village,1.3673,173.1241,27.980000000000018,78,75,3.09,KI,1701586989,-245.16999999999996
399,ghat,24.9647,10.1728,18.860000000000014,18,0,1.96,LY,1701586990,-254.28999999999996
400,adamus,46.3,24.2333,2.090000000000032,79,100,5.92,RO,1701586991,-271.05999999999995
401,jurm,36.8648,70.8342,10.860000000000014,22,100,0.48,AF,1701586992,-262.28999999999996
402,nouadhibou,20.931,-17.0347,18.99000000000001,94,75,4.63,MR,1701586993,-254.15999999999997
403,rikaze,29.25,88.8833,4.920000000000016,18,0,1.16,CN,1701586994,-268.22999999999996
404,alofi,-19.0595,-169.9187,25.700000000000045,83,28,8.08,NU,1701586995,-247.44999999999993
405,dryden,49.7833,-92.7503,-4.729999999999961,82,100,3.6,CA,1701586996,-277.87999999999994
406,kidal,18.4411,1.4078,22.29000000000002,9,7,4.2,ML,1701586998,-250.85999999999996
407,yeppoon,-23.1333,150.7333,22.879999999999995,78,100,5.27,AU,1701586999,-250.26999999999998
408,guilin,25.2819,110.2864,11.230000000000018,86,100,1.67,CN,1701586977,-261.91999999999996
409,hakui,36.8833,136.7833,7.1200000000000045,67,96,6.7,JP,1701587001,-266.03
410,ghanzi,-21.5667,21.7833,29.77000000000004,23,16,3.92,BW,1701587002,-243.37999999999994
411,luganville,-15.5333,167.1667,27.100000000000023,82,100,5.21,VU,1701587003,-246.04999999999995
412,minas de marcona,-15.2119,-75.1103,13.75,87,75,5.48,PE,1701587005,-259.4
413,cynthiana,38.3904,-84.2941,11.450000000000045,95,100,2.96,US,1701587006,-261.69999999999993
414,huarmey,-10.0681,-78.1522,19.920000000000016,89,61,3.76,PE,1701587007,-253.22999999999996
415,ust-tsilma,65.441,52.1498,-10.769999999999982,98,100,0.89,RU,1701587008,-283.91999999999996
416,tual,-5.6667,132.75,27.620000000000005,76,100,6.62,ID,1701587009,-245.52999999999997
417,ahtari,62.554,24.0619,-11.919999999999959,97,100,0.99,FI,1701587010,-285.06999999999994
418,strelka,58.0728,93.0344,-5.810000000000002,94,100,1.97,RU,1701587011,-278.96
419,arawa,-6.2132,155.5367,26.890000000000043,91,100,1.46,PG,1701587012,-246.25999999999993
420,sao paulo de olivenca,-3.3783,-68.8725,22.870000000000005,99,100,0.99,BR,1701587014,-250.27999999999997
421,karema,-6.8205,30.4389,23.379999999999995,79,100,2.1,TZ,1701587015,-249.76999999999998
422,maumere,-8.6199,122.2111,29.970000000000027,70,40,0.24,ID,1701587016,-243.17999999999995
423,chita,52.0333,113.55,-1.92999999999995,51,20,6.0,RU,1701586995,-275.0799999999999
424,mangrol,21.1167,70.1167,29.340000000000032,56,0,3.57,IN,1701587018,-243.80999999999995
425,iquique,-20.2208,-70.1431,18.260000000000048,78,51,1.03,CL,1701587020,-254.88999999999993
426,sengkang,-4.1279,120.0297,31.80000000000001,60,61,1.21,ID,1701587021,-241.34999999999997
427,nuuk,64.1835,-51.7216,0.34000000000003183,59,100,3.09,GL,1701587000,-272.80999999999995
428,colchani,-20.3,-66.9333,10.900000000000034,40,100,1.36,BO,1701587023,-262.24999999999994
429,qa'en,33.7265,59.1844,14.610000000000014,21,0,1.14,IR,1701587024,-258.53999999999996
430,usogorsk,63.4106,48.6872,-13.519999999999982,98,94,1.47,RU,1701587026,-286.66999999999996
431,moyale,3.5167,39.0584,26.129999999999995,34,99,4.99,KE,1701587027,-247.01999999999998
432,trincomalee,8.5711,81.2335,28.02000000000004,78,100,7.01,LK,1701587028,-245.12999999999994
433,kismayo,-0.3582,42.5454,29.75,66,16,6.24,SO,1701587029,-243.39999999999998
434,polyarnyy,69.1989,33.4478,-1.5399999999999636,90,100,5.39,RU,1701587030,-274.68999999999994
435,mammoth lakes,37.6485,-118.9721,-1.5199999999999818,64,0,2.57,US,1701587031,-274.66999999999996
436,belfast,54.5833,-5.9333,-0.0999999999999659,93,100,1.54,GB,1701586444,-273.24999999999994
437,paita,-5.0892,-81.1144,20.220000000000027,87,28,5.27,PE,1701587018,-252.92999999999995
438,presque isle,46.6811,-68.0159,0.160000000000025,91,100,1.54,US,1701587035,-272.98999999999995
439,acajutla,13.5928,-89.8275,25.950000000000045,80,4,3.16,SV,1701587036,-247.19999999999993
440,eldorado,-23.7869,-54.2836,22.450000000000045,90,14,1.55,BR,1701587037,-250.69999999999993
441,san vicente,-26.6167,-54.1333,20.25,96,100,0.53,AR,1701587038,-252.89999999999998
442,durban,-29.8579,31.0292,25.510000000000048,68,0,7.79,ZA,1701586791,-247.63999999999993
443,kone,-21.0595,164.8658,27.370000000000005,64,100,1.82,NC,1701587041,-245.77999999999997
444,crane,31.3974,-102.3501,9.439999999999998,33,0,3.35,US,1701587042,-263.71
445,huilong,31.8111,121.655,11.120000000000005,35,20,2.93,CN,1701586913,-262.03
446,battagram,34.6772,73.0233,17.08000000000004,25,100,1.11,PK,1701586924,-256.06999999999994
447,kilindoni,-7.9139,39.6668,27.640000000000043,75,100,2.74,TZ,1701587045,-245.50999999999993
448,alto barinas,8.5931,-70.2261,23.430000000000007,64,100,1.96,VE,1701587046,-249.71999999999997
449,migne,46.6274,0.3146,-0.01999999999998181,49,0,5.14,FR,1701587047,-273.16999999999996
450,oranjemund,-28.55,16.4333,18.560000000000002,71,0,7.03,NA,1701587048,-254.58999999999997
451,buala,-8.145,159.5921,25.24000000000001,92,100,3.42,SB,1701587050,-247.90999999999997
452,lokomotivnyy,53.0118,60.5684,-4.769999999999982,76,19,9.83,RU,1701587051,-277.91999999999996
453,marsh harbour,26.5412,-77.0636,25.30000000000001,88,62,4.02,BS,1701587052,-247.84999999999997
454,ardakan,32.31,54.0175,18.090000000000032,23,0,2.06,IR,1701587053,-255.05999999999995
455,pacific grove,36.6177,-121.9166,11.939999999999998,90,0,2.06,US,1701587054,-261.21
456,sena madureira,-9.0656,-68.6569,22.78000000000003,91,82,1.24,BR,1701587055,-250.36999999999995
457,fisterra,42.9049,-9.2629,11.53000000000003,69,100,11.86,ES,1701587056,-261.61999999999995
458,copala,16.65,-98.9833,25.02000000000004,81,11,1.52,MX,1701587057,-248.12999999999994
459,shakawe,-18.3667,21.85,29.54000000000002,42,51,1.99,BW,1701587058,-243.60999999999996
460,quang ngai,15.1167,108.8,25.930000000000007,86,100,3.42,VN,1701587059,-247.21999999999997
461,san marcos de colon,13.4333,-86.8,17.360000000000014,93,18,2.49,HN,1701587061,-255.78999999999996
462,holmsund,63.706,20.3641,-9.029999999999973,78,100,3.13,SE,1701587062,-282.17999999999995
463,fort st. john,56.2499,-120.8529,-8.539999999999964,88,10,0.79,CA,1701587063,-281.68999999999994
464,christchurch,-43.5333,172.6333,14.950000000000045,62,75,7.72,NZ,1701586804,-258.19999999999993
465,korla,41.7597,86.1469,5.020000000000039,33,0,3.74,CN,1701587065,-268.12999999999994
466,jasper,37.2001,-94.3502,4.439999999999998,81,40,4.12,US,1701586940,-268.71
467,den burg,53.0542,4.7972,1.990000000000009,93,100,4.63,NL,1701587067,-271.15999999999997
468,thames,-37.1333,175.5333,17.890000000000043,98,100,6.53,NZ,1701587070,-255.25999999999993
469,shimanovsk,52.0,127.7,-7.819999999999993,73,100,3.86,RU,1701586807,-280.96999999999997
470,jayapura,-2.5333,140.7,28.370000000000005,73,89,2.33,ID,1701587072,-244.77999999999997
471,siwa oasis,29.2041,25.5195,16.53000000000003,72,100,3.15,EG,1701586883,-256.61999999999995
472,tavda,58.0425,65.2726,-15.639999999999986,86,100,5.86,RU,1701587075,-288.78999999999996
473,blythe,33.6103,-114.5964,7.25,49,0,1.54,US,1701587076,-265.9
474,strezhevoy,60.7333,77.5889,-17.23999999999998,98,77,0.89,RU,1701586944,-290.39
475,le port,-20.9373,55.2919,29.980000000000018,87,31,4.11,RE,1701586812,-243.16999999999996
476,san patricio,28.017,-97.5169,17.129999999999995,68,100,2.66,US,1701587080,-256.02
477,lodwar,3.1191,35.5973,31.920000000000016,37,2,5.88,KE,1701587081,-241.22999999999996
478,campos belos,-13.0367,-46.7717,21.140000000000043,78,100,0.47,BR,1701587082,-252.00999999999993
479,sungjibaegam,41.2428,128.7989,-6.279999999999973,65,0,1.32,KP,1701587083,-279.42999999999995
480,kapa'a,22.0752,-159.319,22.99000000000001,91,40,2.57,US,1701587084,-250.15999999999997
481,belyy yar,53.6039,91.3903,1.9399999999999977,69,0,4.0,RU,1701587086,-271.21
482,aibak,36.2647,68.0155,15.510000000000048,31,91,1.27,AF,1701587087,-257.63999999999993
483,boyolangu,-8.1181,111.8935,29.25,69,70,4.36,ID,1701587088,-243.89999999999998
484,dingcheng,32.1272,115.0394,13.390000000000043,28,100,0.42,CN,1701586950,-259.75999999999993
485,mariehamn,60.0973,19.9348,-2.319999999999993,80,100,4.63,AX,1701586816,-275.46999999999997
486,vernon,50.2581,-119.2691,-2.5299999999999727,86,34,0.89,CA,1701587091,-275.67999999999995
487,bilicenii vechi,47.6564,28.0472,2.1899999999999977,63,96,7.93,MD,1701587092,-270.96
488,east london,-33.0153,27.9116,23.370000000000005,73,100,2.06,ZA,1701586878,-249.77999999999997
489,port douglas,-16.4833,145.4667,28.05000000000001,71,99,2.19,AU,1701587095,-245.09999999999997
490,yaren,-0.5472,166.916,28.04000000000002,78,100,2.73,NR,1701587096,-245.10999999999996
491,sambava,-14.2667,50.1667,28.400000000000034,71,100,3.41,MG,1701587097,-244.74999999999994
492,lionel town,17.8101,-77.2406,24.980000000000018,81,8,4.41,JM,1701587098,-248.16999999999996
493,pereslavl'-zalesskiy,56.7393,38.8563,-9.479999999999961,95,100,2.95,RU,1701587099,-282.62999999999994
494,almodovar del rio,37.8336,-5.0167,3.490000000000009,100,40,4.63,ES,1701587100,-269.65999999999997
495,novodvinsk,64.4165,40.8122,-15.139999999999986,99,88,1.14,RU,1701586948,-288.28999999999996
496,faya-largeau,17.9257,19.1043,23.640000000000043,15,3,7.66,TD,1701587102,-249.50999999999993
497,tenno,39.9,139.9667,4.410000000000025,96,100,5.06,JP,1701587104,-268.73999999999995
498,happy valley-goose bay,53.3168,-60.3315,-13.529999999999973,74,5,1.8,CA,1701587105,-286.67999999999995
499,yanchep,-31.55,115.6833,28.340000000000032,59,0,5.11,AU,1701587106,-244.80999999999995
500,paradip garh,20.3167,86.6167,27.710000000000036,53,100,6.35,IN,1701587107,-245.43999999999994
501,oamaru,-45.0784,170.9801,10.770000000000039,78,100,4.07,NZ,1701587108,-262.37999999999994
502,tsiombe,-25.3,45.4833,26.52000000000004,38,0,7.94,MG,1701587109,-246.62999999999994
503,nizhniy odes,63.6445,54.856,-11.819999999999993,97,100,1.16,RU,1701587110,-284.96999999999997
504,tongliao,43.6125,122.2653,-1.329999999999984,69,9,7.18,CN,1701587112,-274.47999999999996
505,jingdezhen,29.2947,117.2079,11.54000000000002,48,100,0.49,CN,1701586923,-261.60999999999996
506,rauma,61.1272,21.5113,-10.979999999999961,93,100,2.23,FI,1701587028,-284.12999999999994
507,ubud,-8.5098,115.2654,27.370000000000005,74,95,2.73,ID,1701587041,-245.77999999999997
508,mananjary,-21.2167,48.3333,24.629999999999995,59,51,3.45,MG,1701587116,-248.51999999999998
509,magnitka,55.3475,59.6961,-8.899999999999977,92,100,5.87,RU,1701587117,-282.04999999999995
510,cherepovets,59.1333,37.9,-7.099999999999966,86,100,2.0,RU,1701587103,-280.24999999999994
511,opuwo,-18.0607,13.84,22.420000000000016,71,100,0.71,NA,1701586855,-250.72999999999996
512,dudinka,69.4058,86.1778,-29.879999999999967,92,14,4.87,RU,1701587120,-303.03
513,custodia,-8.0875,-37.6431,22.430000000000007,75,54,3.48,BR,1701587121,-250.71999999999997
514,afaahiti,-17.75,-149.2833,26.930000000000007,84,36,9.52,PF,1701587123,-246.21999999999997
515,jinghong,21.991,100.7341,24.810000000000002,75,95,0.9,CN,1701587124,-248.33999999999997
516,illapel,-31.6308,-71.1653,16.510000000000048,66,3,1.01,CL,1701587125,-256.63999999999993
517,boa vista,2.8197,-60.6733,26.99000000000001,69,0,5.66,BR,1701587126,-246.15999999999997
518,camacupa,-12.0167,17.4833,18.350000000000023,90,100,0.77,AO,1701587127,-254.79999999999995
519,aswan,24.0934,32.907,24.0,32,0,3.49,EG,1701587129,-249.14999999999998
520,port-vila,-17.7338,168.3219,25.78000000000003,81,100,5.34,VU,1701587130,-247.36999999999995
521,onsong,42.9572,129.9933,-2.6999999999999886,58,0,0.84,KP,1701587131,-275.84999999999997
522,morondava,-20.2833,44.2833,29.470000000000027,62,0,4.62,MG,1701587132,-243.67999999999995
523,mahanje,-9.9333,35.3333,25.340000000000032,65,56,1.33,TZ,1701587133,-247.80999999999995
524,amahai,-3.3333,128.9167,29.610000000000014,70,62,3.11,ID,1701587134,-243.53999999999996
525,cestos city,5.46,-9.5828,26.05000000000001,84,7,2.14,LR,1701587135,-247.09999999999997
526,newman,37.3138,-121.0208,10.590000000000032,86,89,0.84,US,1701587137,-262.55999999999995
527,basco,20.4487,121.9702,25.480000000000018,83,96,8.82,PH,1701587138,-247.66999999999996
528,sao jose de ribamar,-2.5619,-44.0542,28.210000000000036,85,100,4.88,BR,1701587104,-244.93999999999994
529,alpine,32.835,-116.7664,11.07000000000005,69,0,1.54,US,1701587142,-262.0799999999999
530,antalaha,-14.9003,50.2788,28.910000000000025,67,47,3.4,MG,1701587143,-244.23999999999995
531,puerto maldonado,-12.6,-69.1833,23.930000000000007,83,100,0.86,PE,1701587146,-249.21999999999997
532,saint-francois,46.4154,3.9054,-4.639999999999986,94,43,2.06,FR,1701587147,-277.78999999999996
533,igarka,67.4667,86.5833,-30.44999999999999,98,18,4.29,RU,1701587134,-303.59999999999997
534,cafayate,-26.073,-65.9761,21.54000000000002,79,52,0.92,AR,1701587149,-251.60999999999996
535,borba,-4.3878,-59.5939,23.970000000000027,97,100,0.33,BR,1701587150,-249.17999999999995
536,embi,48.8264,58.1442,0.8700000000000045,62,85,5.56,KZ,1701586885,-272.28
537,benguela,-12.5763,13.4055,27.33000000000004,71,100,4.74,AO,1701587152,-245.81999999999994
538,champerico,14.3,-91.9167,25.700000000000045,80,5,2.8,GT,1701587153,-247.44999999999993
539,carutapera,-1.195,-46.02,26.060000000000002,84,100,3.01,BR,1701587154,-247.08999999999997
540,pisco,-13.7,-76.2167,18.340000000000032,88,100,4.63,PE,1701587155,-254.80999999999995
541,uliastay,47.7417,96.8444,-5.259999999999991,79,96,0.97,MN,1701587157,-278.40999999999997
542,lunen,51.6167,7.5167,1.6200000000000045,88,100,3.09,DE,1701587104,-271.53
543,plaza huincul,-38.926,-69.2086,6.75,10,0,4.02,AR,1701587155,-266.4
544,at taj,24.2049,23.2857,17.120000000000005,29,6,3.57,LY,1701587160,-256.03
545,sorso,40.8,8.5772,7.550000000000011,59,6,6.69,IT,1701587161,-265.59999999999997
546,eskisehir,39.7767,30.5206,6.9500000000000455,93,0,0.51,TR,1701587161,-266.19999999999993
547,san luis de la loma,17.2706,-100.8939,25.58000000000004,74,97,1.84,MX,1701587164,-247.56999999999994
548,tandlianwala,31.0333,73.1333,24.660000000000025,27,0,1.62,PK,1701587165,-248.48999999999995
549,labytnangi,66.6572,66.4183,-30.079999999999984,98,6,1.96,RU,1701587166,-303.22999999999996
550,masterton,-40.9597,175.6575,15.490000000000009,98,100,2.15,NZ,1701587078,-257.65999999999997
551,toma,12.7667,-2.8833,23.480000000000018,20,80,3.41,BF,1701587168,-249.66999999999996
552,bridgewater,44.3835,-64.5155,3.150000000000034,97,100,1.79,CA,1701587169,-269.99999999999994
553,ebon,4.582,168.6964,27.74000000000001,81,100,8.59,MH,1701587170,-245.40999999999997
554,yuzhno-kurilsk,44.0306,145.8556,1.32000000000005,64,100,2.76,RU,1701587171,-271.8299999999999
555,nuku'alofa,-21.1333,-175.2,26.189999999999998,94,20,4.63,TO,1701587173,-246.95999999999998
556,andkhoy,36.9529,65.1238,17.170000000000016,39,0,2.53,AF,1701587174,-255.97999999999996
557,souillac,-20.5167,57.5167,26.510000000000048,79,50,3.35,MU,1701587156,-246.63999999999993
558,stettler,52.3168,-112.7186,-5.139999999999986,72,99,3.33,CA,1701587176,-278.28999999999996
559,cill airne,52.05,-9.5167,3.140000000000043,92,100,1.33,IE,1701586994,-270.00999999999993
560,port-gentil,-0.7193,8.7815,26.980000000000018,94,40,1.03,GA,1701587178,-246.16999999999996
561,sodankyla,67.4167,26.6,-7.099999999999966,96,100,2.31,FI,1701587179,-280.24999999999994
562,kalabo,-14.97,22.6814,23.129999999999995,74,99,1.6,ZM,1701587180,-250.01999999999998
563,yerofey pavlovich,53.9667,121.9667,-14.449999999999989,96,100,0.83,RU,1701587181,-287.59999999999997
564,asau,46.4333,26.4,10.510000000000048,75,58,3.15,RO,1701587182,-262.63999999999993
565,mount pearl,47.5166,-52.7813,1.75,92,75,2.57,CA,1701586959,-271.4
566,calatagan,13.8833,120.65,29.170000000000016,71,63,7.9,PH,1701587185,-243.97999999999996
567,naze,28.3667,129.4833,16.260000000000048,54,78,4.1,JP,1701587186,-256.88999999999993
568,rudnichnyy,59.617,52.4703,-11.370000000000005,96,99,2.22,RU,1701587187,-284.52
569,hazorasp,41.3194,61.0742,5.910000000000025,57,55,2.25,UZ,1701587188,-267.23999999999995
570,port blair,11.6667,92.75,28.02000000000004,89,75,3.09,IN,1701587189,-245.12999999999994
571,kaset wisai,15.6556,103.5836,33.52000000000004,48,25,6.74,TH,1701587191,-239.62999999999994
572,dalnegorsk,44.5604,135.5701,-5.909999999999968,79,6,2.0,RU,1701587072,-279.05999999999995
573,yacuiba,-22.038,-63.6797,24.100000000000023,86,100,1.01,BO,1701587193,-249.04999999999995
574,bakanas,44.8081,76.2772,13.010000000000048,32,99,7.41,KZ,1701587194,-260.13999999999993
575,loushanguan,28.1375,106.82,9.950000000000045,78,100,0.93,CN,1701587195,-263.19999999999993
576,fethiye,36.6217,29.1164,14.930000000000007,74,100,1.35,TR,1701586978,-258.21999999999997
577,kununurra,-15.7667,128.7333,39.99000000000001,27,98,4.63,AU,1701587197,-233.15999999999997
578,port hedland,-20.3167,118.5667,30.03000000000003,62,2,7.72,AU,1701587198,-243.11999999999995
